latitude,longitude,altitude,geometry,stop_id,stop_name,capacity,category
25.02605,121.5436,,Point,U101001,捷運科技大樓站,28,中
25.02565,121.54357,,Point,U101002,復興南路二段273號前,21,中
25.02429,121.54124,,Point,U101003,國北教大實小東側門,16,中
25.02351,121.54282,,Point,U101004,和平公園東側,11,中
25.02153,121.54299,,Point,U101005,辛亥復興路口西北側,16,中
25.02429,121.54328,,Point,U101006,復興南路二段280號前,11,中
25.02253,121.54326,,Point,U101007,復興南路二段340巷口,11,中
25.02112,121.53407,,Point,U101008,新生南路三段52號前,17,高
25.01976,121.53384,,Point,U101009,新生南路三段66號前,16,高
25.01894,121.53361,,Point,U101010,新生南路三段82號前,20,高
25.01986,121.52982,,Point,U101012,辛亥路一段30號前,8,中
25.02543,121.54332,,Point,U101013,和平復興路口西北側,9,中
25.01717,121.53202,,Point,U101014,羅斯福路三段311號前,11,中
25.020348,121.546446,,Point,U101015,大安運動中心停車場,14,中
25.01927,121.52989,,Point,U101016,羅斯福路三段245號前,8,中
25.01895,121.53156,,Point,U101018,溫州公園,5,中
25.024461,121.546705,,Point,U101019,和平臥龍街口,15,中
25.02093,121.5331,,Point,U101020,溫州停車場,5,中
25.01385,121.53549,,Point,U101021,銘傳國小側門,7,中
25.01491,121.53438,,Point,U101022,捷運公館站(2號出口),99,中
25.01451,121.54142,,Point,U101024,臺灣科技大學正門,30,中
25.01295,121.53973,,Point,U101025,臺灣科技大學側門,99,中
25.01137,121.54062,,Point,U101026,公館公園,15,中
25.01182,121.54165,,Point,U101027,臺灣科技大學後門,39,高
25.01426,121.54382,,Point,U101028,臺大醫學院附設癌醫中心,20,中
25.01234,121.54503,,Point,U101029,臺大環研大樓,15,中
25.0136,121.54656,,Point,U101030,臺大永齡生醫工程館,34,高
25.01537,121.54698,,Point,U101031,臺大男七舍前,20,高
25.01637,121.54535,,Point,U101032,臺大男一舍前,61,高
25.01664,121.5452,,Point,U101033,臺大男六舍前,46,中
25.01576,121.54291,,Point,U101034,臺大動物醫院前,18,中
25.01787,121.5476,,Point,U101035,臺大土木研究大樓前,24,高
25.02032,121.54497,,Point,U101036,臺大萬才館前,20,高
25.02076,121.54432,,Point,U101037,臺大國青大樓宿舍前,20,高
25.02101,121.54284,,Point,U101038,臺大社科院圖書館前,27,中
25.02104,121.54081,,Point,U101039,臺大法人語言訓練中心前,28,中
25.0222,121.53626,,Point,U101040,臺大綜合體育館停車場前,25,中
25.02218,121.53474,,Point,U101041,辛亥新生路口東南側,41,中
25.01727,121.54471,,Point,U101042,基隆長興路口東側,15,中
25.022864,121.546622,,Point,U101091,國北教大側門南側,25,高
25.021641,121.54704,,Point,U101092,和平實小東北側,13,中
25.021469,121.544069,,Point,U101093,大安區健康服務中心,15,中
25.02193,121.53165,,Point,U101094,辛亥泰順街口,20,中
25.0189,121.55013,,Point,U101095,芳和國中,28,高
25.01856,121.55558,,Point,U101097,臥龍樂業街口,36,高
25.01623,121.55037,,Point,U101098,臥龍公園,14,中
25.021,121.55211,,Point,U101099,嘉興公園,44,高
25.0181,121.55929,,Point,U101100,捷運麟光站(2號出口),35,高
25.02397,121.55266,,Point,U101101,捷運六張犁站,64,高
25.02705,121.55551,,Point,U101102,喬治工商,26,中
25.02694,121.55325,,Point,U101103,法治公園,15,中
25.02021,121.52942,,Point,U101104,捷運臺電大樓站(2號出口),15,中
25.02669,121.52529,,Point,U101105,和平金山路口,45,高
25.02638,121.52971,,Point,U101107,和平龍泉街口,34,高
25.02621,121.53171,,Point,U101108,和平泰順街口,9,高
25.0266,121.52973,,Point,U101109,臺灣師範大學(圖書館),40,高
25.0276,121.52217,,Point,U101110,捷運古亭站(6號出口),60,高
25.02715,121.52293,,Point,U101111,捷運古亭站(5號出口),14,中
25.02895,121.5379,,Point,U101113,臺北市立圖書館(總館),45,高
25.02657,121.53515,,Point,U101114,新生和平路口東北側,38,高
25.02606,121.53738,,Point,U101115,建國和平路口西北側,44,高
25.02984,121.53107,,Point,U101116,金華公園,35,高
25.03383,121.52815,,Point,U101117,捷運東門站(3號出口),15,中
25.03519,121.5245,,Point,U101118,金甌女中,12,中
25.03325,121.52436,,Point,U101119,金杭公園,20,高
25.03164,121.52661,,Point,U101120,愛國金山路口,33,高
25.0237,121.54899,,Point,U101122,敦化南路二段293巷口南側,14,中
25.02215,121.54839,,Point,U101123,敦化基隆路口,29,中
25.02721,121.54988,,Point,U101124,安和路二段181巷口,17,高
25.02952,121.55406,,Point,U101125,臨江街夜市(通化街101巷口),30,高
25.02931,121.55721,,Point,U101126,臨江街夜市(基隆路),17,中
25.04177,121.53833,,Point,U101127,台北科技大學億光大樓,46,中
25.04003,121.53299,,Point,U101128,新生南路一段119巷口,33,高
25.03753,121.53523,,Point,U101129,幸安國小(仁愛路),16,高
25.03534,121.5354,,Point,U101130,民榮公園,15,中
25.03701,121.54348,,Point,U101131,復興南路1段340巷口,38,高
25.03935,121.53828,,Point,U101132,建國濟南路口,29,高
25.04035,121.5436,,Point,U101133,捷運忠孝復興站(2號出口),43,高
25.0332,121.5439,,Point,U101134,捷運大安站(4號出口),13,中
25.03358,121.54141,,Point,U101135,捷運大安站(2號出口),22,中
25.03317,121.54639,,Point,U101136,信義大安路口(信維大樓),12,中
25.04092,121.54825,,Point,U101137,龍門廣場,50,中
25.03754,121.55285,,Point,U101138,仁愛安和路口,25,中
25.03333,121.54977,,Point,U101139,信義敦化路口,46,高
25.03706,121.55166,,Point,U101140,仁愛國中,25,中
25.03304,121.55171,,Point,U101141,捷運信義安和站(2號出口),26,中
25.04463,121.53665,,Point,U101142,八德市場,30,中
25.04448,121.53946,,Point,U101143,昌隆公園,16,高
25.03332,121.53435,,Point,U101144,捷運大安森林公園站(2號出口),62,高
25.03318,121.55725,,Point,U101145,信義延吉街口,15,高
25.03513,121.5561,,Point,U101146,光信公園(光復南路456巷),15,高
25.0391,121.5569,,Point,U101147,僑安地下停車場(2號出口)東南側,20,中
25.03635,121.53833,,Point,U101148,建國南路一段279巷口,32,高
25.04091,121.53295,,Point,U101149,捷運忠孝新生站(6號出口),15,中
25.04239,121.53324,,Point,U101150,捷運忠孝新生站(4號出口),34,中
25.03126,121.54339,,Point,U101151,大安高工,23,中
25.04189,121.53376,,Point,U101152,捷運忠孝新生站(3號出口),23,中
25.04201,121.54612,,Point,U101153,瑠公公園,20,中
25.04405,121.5486,,Point,U101154,敦化市民路口,23,高
25.03336,121.5364,,Point,U101155,捷運大安森林公園站(5號出口),15,中
25.0328,121.53746,,Point,U101156,信義建國路口,38,高
25.03569,121.5451,,Point,U101157,東豐公園,19,中
25.03473,121.54767,,Point,U101158,德安公園(四維路66巷),14,高
25.04262,121.54443,,Point,U101159,捷運忠孝復興站(5號出口),41,高
25.04153,121.5524,,Point,U101160,捷運忠孝敦化站(2號出口),17,高
25.04159,121.54937,,Point,U101161,捷運忠孝敦化站(7號出口),18,中
25.02979,121.54053,,Point,U101163,瑞安街208巷,15,中
25.0277,121.55132,,Point,U101165,樂利路21巷口,17,高
25.02469,121.54459,,Point,U101166,捷運科技大樓站(台北教育大學),46,高
25.04122,121.55745,,Point,U101167,捷運國父紀念館站(2號出口),38,高
25.03756,121.54587,,Point,U101168,仁愛醫院,30,中
25.03305,121.55378,,Point,U101169,捷運信義安和站(4號出口),30,高
25.02681,121.54668,,Point,U101170,成功國宅,30,高
25.03748,121.55564,,Point,U101171,仁愛延吉街口,25,高
25.03331,121.55265,,Point,U101172,捷運信義安和站(1號出口),33,高
25.0287,121.54904,,Point,U101173,敦化南路二段103巷口,24,中
25.02861,121.54336,,Point,U101174,復興南路二段128巷口,28,高
25.02575,121.5377,,Point,U101175,和平東建國南路口,17,中
25.01223,121.54788,,Point,U101176,芳蘭山莊,16,高
25.04311,121.54313,,Point,U101177,復興南路一段126巷口,15,中
25.03363,121.52962,,Point,U101179,捷運東門站(5號出口),28,高
25.03609,121.54709,,Point,U101180,仁愛路四段48巷口,11,中
25.01551,121.53374,,Point,U101181,捷運公館站(3號出口),90,中
25.04196,121.53653,,Point,U101182,臺北科技大學(電機工程系),16,中
25.04176,121.54027,,Point,U101183,忠孝東路三段217巷口,34,高
25.01744,121.53334,,Point,U101184,新生南路三段94巷口,15,中
25.02267,121.5341,,Point,U101185,辛亥新生路口西北側,12,中
25.03479,121.54376,,Point,U101186,捷運大安站(6號出口),19,中
25.01783,121.55224,,Point,U101187,臥龍街195巷口,14,高
25.01727,121.54904,,Point,U101188,辛亥路三段157巷口,19,高
25.02039,121.54853,,Point,U101189,臥龍基隆路口,16,高
25.02347,121.54108,,Point,U101190,敦親公園,20,高
25.02054,121.54561,,Point,U101191,大安運動中心,27,中
25.02444,121.54908,,Point,U101192,和平敦化路口,25,高
25.01705,121.54435,,Point,U101193,基隆長興路口,43,中
25.03762,121.55009,,Point,U101194,仁愛路四段122巷口,16,中
25.04464,121.54944,,Point,U101196,市民敦化路口,15,中
25.04172,121.54541,,Point,U101197,忠孝東路四段49巷口,15,中
25.04472,121.54401,,Point,U101198,市民復興路口(東南側),16,中
25.02598,121.53454,,Point,U101199,和平新生路口西南側,13,高
25.02535,121.55101,,Point,U101200,全安公園,16,高
25.03333,121.53968,,Point,U101201,信義路三段134巷口,19,中
25.03715,121.54936,,Point,U101202,仁愛敦南圓環(東南側),16,中
25.02709,121.54902,,Point,U101203,臺北遠企購物中心,33,中
25.0371,121.54839,,Point,U101204,外交部外交及國際事務學院,17,中
25.02821,121.54864,,Point,U101205,四維路170巷口,22,中
25.03328,121.5425,,Point,U101206,捷運大安站(3號出口),44,高
25.02055,121.52855,,Point,U101207,捷運臺電大樓站(2號出口),31,中
25.03459,121.55164,,Point,U101208,信義路四段199巷,15,中
25.02101,121.54153,,Point,U101209,臺大資訊大樓,40,中
25.03002,121.54893,,Point,U101210,敦化南路二段81巷,40,高
25.03054,121.52466,,Point,U101211,原臺北刑務所官舍,23,高
25.04205,121.55657,,Point,U101212,捷運國父紀念館站(1號出口),25,高
25.0401,121.54122,,Point,U101213,懷生國中,15,高
25.03827,121.54802,,Point,U101214,仁愛敦南圓環(西北側),20,中
25.02974,121.55146,,Point,U101215,立人國小,17,中
25.02268,121.53608,,Point,U101216,和平東路二段18巷口,24,中
25.03303,121.54372,,Point,U101217,捷運大安站(5號出口),19,中
25.02832,121.55592,,Point,U101218,臨江公園,13,中
25.01027,121.53998,,Point,U101219,羅斯福路四段113巷19弄口,14,中
25.04132,121.55393,,Point,U101221,忠孝東路四段248巷口,15,中
25.03795,121.55466,,Point,U101222,仁愛延吉路口(西北側),18,高
25.02528,121.55224,,Point,U101223,樂利路101巷口,13,高
25.02208,121.52678,,Point,U101224,羅斯福浦城街口,15,中
25.03551,121.54951,,Point,U101225,敦化南路一段295巷口,18,中
25.02942,121.55294,,Point,U101226,通安區民活動中心,19,中
25.03813,121.54631,,Point,U101228,仁愛大安路口(東北側),20,中
25.07894,121.51121,,Point,U103001,延平國宅,30,高
25.0741,121.51349,,Point,U103002,臺北市立圖書館大同分館,20,高
25.07717,121.50934,,Point,U103003,合昌宮,15,高
25.06864,121.5107,,Point,U103004,民族延平路口,23,高
25.07158,121.51368,,Point,U103005,重慶酒泉街口,30,高
25.06647,121.5165,,Point,U103006,樹德公園,14,高
25.05601,121.50895,,Point,U103007,陳天來故居,18,高
25.07378,121.51583,,Point,U103008,臺北孔廟,27,高
25.07133,121.52024,,Point,U103009,捷運圓山站(1號出口),44,高
25.0722,121.51057,,Point,U103010,酒泉延平路口,26,高
25.07567,121.51862,,Point,U103011,重慶國中,37,高
25.07598,121.51409,,Point,U103012,重慶北路三段383巷口,25,高
25.07447,121.52003,,Point,U103013,台北數位產業園區,24,高
25.06326,121.51099,,Point,U103019,民權延平路口(西北側),20,高
25.06327,121.50943,,Point,U103020,民權迪化街口,23,高
25.05915,121.51033,,Point,U103021,大稻埕公園,25,高
25.06853,121.51729,,Point,U103022,大龍老人住宅,14,中
25.0708,121.51826,,Point,U103023,大龍峒社會住宅,20,高
25.06314,121.51308,,Point,U103024,捷運大橋頭站(2號出口),57,高
25.06325,121.51162,,Point,U103025,捷運大橋頭站(1A出口),18,中
25.06174,121.51969,,Point,U103026,捷運民權西路站(2號出口),25,中
25.05826,121.52063,,Point,U103027,捷運雙連站(2號出口),41,高
25.04991,121.5104,,Point,U103028,捷運北門站(3號出口),62,高
25.05592,121.51367,,Point,U103029,朝陽公園,10,中
25.05454,121.51052,,Point,U103030,永樂市場,38,高
25.07049,121.51596,,Point,U103031,大龍公園,18,高
25.06054,121.51338,,Point,U103032,重慶涼州街口,13,中
25.06867,121.51993,,Point,U103033,圓山線形公園,14,中
25.05369,121.51418,,Point,U103034,圓環站,28,高
25.06853,121.51359,,Point,U103035,重慶民族路口,20,高
25.06407,121.51822,,Point,U103036,承德路三段8巷口,16,中
25.04925,121.51468,,Point,U103037,太原廣場,31,高
25.06594,121.51078,,Point,U103038,國順公園,20,高
25.05205,121.50818,,Point,U103039,聯合醫院中興院區,27,高
25.06011,121.51729,,Point,U103040,蔣渭水紀念公園,24,高
25.07491,121.5115,,Point,U103041,迪化休閒運動公園,15,高
25.06496,121.51608,,Point,U103042,大同運動中心,16,高
25.05918,121.51373,,Point,U103043,重慶保安街口(家樂福重慶店),20,高
25.05662,121.50783,,Point,U103044,大稻埕碼頭,35,高
25.05805,121.51353,,Point,U103045,歸綏戲曲公園,20,高
25.06322,121.5144,,Point,U103046,民權國中(民權西路),17,中
25.06247,121.51839,,Point,U103047,承德民權路口,17,中
25.05366,121.51638,,Point,U103048,南京太原路口,18,中
25.05756,121.51828,,Point,U103049,承德民生西路口,11,中
25.05646,121.51698,,Point,U103050,太原五原路口,24,高
25.04937,121.51914,,Point,U103051,臺北轉運站(華陰街),20,高
25.06129,121.52021,,Point,U103052,捷運民權西路站(3號出口),50,高
25.05296,121.51938,,Point,U103053,捷運中山站(5號出口),11,中
25.0515,121.51398,,Point,U103054,重慶長安路口,15,高
25.06587,121.51847,,Point,U103055,承德昌吉街口,18,中
25.05658,121.50826,,Point,U103056,大同16號廣場,14,中
25.07182,121.51929,,Point,U103057,捷運圓山站(2號出口),37,高
25.06669,121.51615,,Point,U103058,樹德公園,21,高
25.04879,121.51626,,Point,U103059,承德鄭州路口(市民高架下),38,高
25.06036,121.51996,,Point,U103060,成淵高中,14,高
25.06157,121.51683,,Point,U103061,雙蓮國小,20,高
25.06095,121.51428,,Point,U103062,寧夏涼州街口,15,高
25.06092,121.51126,,Point,U103063,延平涼州街口,14,高
25.08128,121.51784,,Point,U104001,劍潭抽水站,17,中
25.08914,121.51542,,Point,U104002,通河東街大南路口,15,高
25.08695,121.51901,,Point,U104003,福港街停車場,22,高
25.08521,121.51918,,Point,U104004,百齡國小,50,高
25.10277,121.53357,,Point,U104005,雨聲街165巷口,15,高
25.12001,121.53342,,Point,U104006,天和公園,13,高
25.11856,121.52964,,Point,U104007,中山天母路口,29,高
25.11633,121.53414,,Point,U104008,天母運動公園,27,高
25.11356,121.53718,,Point,U104009,臺北市立大學(天母校區),23,高
25.11127,121.53244,,Point,U104010,忠誠路二段53巷,18,高
25.11341,121.53195,,Point,U104012,天母棒球場,26,高
25.12011,121.52652,,Point,U104013,天母北天玉街口,15,中
25.11184,121.52589,,Point,U104014,蘭興公園,48,高
25.08009,121.51895,,Point,U104015,明勝公園,14,中
25.07994,121.52426,,Point,U104016,劍潭海外青年活動中心,23,中
25.10813,121.5304,,Point,U104018,忠誠路一段173巷口,11,中
25.10543,121.529309,,Point,U104019,雨農國小,35,高
25.10399,121.52593,,Point,U104020,忠誠公園,14,中
25.10155,121.52832,,Point,U104021,芝山抽水站,21,高
25.10186,121.53083,,Point,U104022,至誠路一段305巷口,21,高
25.08302,121.52069,,Point,U104023,華齡公園,25,高
25.08671,121.52096,,Point,U104024,前港公園(福德宮),18,高
25.08828,121.51985,,Point,U104025,華齡街185巷口,12,中
25.0848,121.52125,,Point,U104026,前港公園(前港街),19,高
25.08736,121.52272,,Point,U104027,百齡高中,15,高
25.10364,121.52219,,Point,U104028,捷運芝山站(2號出口),21,高
25.10208,121.51979,,Point,U104029,臺灣戲曲中心,14,高
25.08288,121.52455,,Point,U104030,捷運劍潭站(2號出口),79,高
25.08403,121.5249,,Point,U104031,劍潭基河路口,20,高
25.09667,121.53206,,Point,U104032,志成公園,23,高
25.09896,121.53025,,Point,U104033,福林國小,14,高
25.09651,121.52753,,Point,U104034,中山中正路口,19,高
25.08911,121.52154,,Point,U104035,士林運動中心,30,高
25.09164,121.51706,,Point,U104036,陽明高中,36,高
25.09631,121.51449,,Point,U104037,兒童新樂園,23,高
25.09598,121.51776,,Point,U104038,臺北市立天文館,31,高
25.09419,121.52833,,Point,U104040,福林公園,17,高
25.09343,121.52642,,Point,U104041,捷運士林站(2號出口),30,高
25.09435,121.51702,,Point,U104043,士林高商,26,高
25.10991,121.53039,,Point,U104044,蘭雅公園,32,高
25.10455,121.53195,,Point,U104045,聯合醫院陽明院區,15,高
25.10225,121.52286,,Point,U104046,捷運芝山站(1號出口),36,中
25.10143,121.53585,,Point,U104047,至誠公園,15,高
25.10113,121.55159,,Point,U104048,原住民文化主題公園,21,高
25.09106,121.51502,,Point,U104049,通河東街2段10巷口,15,高
25.09755,121.54036,,Point,U104050,梅林新村,15,高
25.08678,121.50948,,Point,U104051,延平北中正路口,30,高
25.08505,121.51166,,Point,U104052,重慶北路四段190巷口,13,高
25.08393,121.51169,,Point,U104053,重慶北葫東街口,15,高
25.08254,121.5075,,Point,U104054,葫蘆國小,20,高
25.10459,121.52417,,Point,U104055,士林3號廣場,30,中
25.08824,121.51054,,Point,U104056,社正公園,15,高
25.09058,121.50142,,Point,U104057,社子國小,15,高
25.09346,121.50376,,Point,U104058,社中街384巷口,18,高
25.10641,121.52944,,Point,U104059,忠誠路一段138號,15,高
25.0902,121.50622,,Point,U104060,社子公園,14,高
25.09833,121.54788,,Point,U104061,國立故宮博物院,17,高
25.09763,121.53402,,Point,U104062,泰北高中,16,高
25.09312,121.51419,,Point,U104063,後港公園,15,高
25.08279,121.51219,,Point,U104064,重慶北路四段117號,18,高
25.10893,121.46639,,Point,U104065,社子島島頭公園,15,高
25.10304,121.48297,,Point,U104066,延平北路八段133巷口,15,高
25.1064,121.4836,,Point,U104067,坤天亭,14,高
25.11314,121.48974,,Point,U104068,社子島濕地解說小築,15,高
25.10261,121.48819,,Point,U104069,福安國中,11,高
25.09669,121.49706,,Point,U104070,福安消防分隊,15,高
25.10696,121.53234,,Point,U104071,聖山綠地,15,高
25.11044,121.53595,,Point,U104072,芝山國小,30,高
25.08899,121.51751,,Point,U104073,士林新天地,29,高
25.10775,121.52312,,Point,U104074,蘭雅國小,27,高
25.0933,121.51962,,Point,U104075,中正基河路口,28,高
25.09609,121.53006,,Point,U104076,福林公園(中正路),27,高
25.09709,121.54229,,Point,U104077,至善臨溪路口,22,高
25.08217,121.51074,,Point,U104078,市立圖書館葫蘆堵分館,13,高
25.11306,121.53945,,Point,U104079,東山路110巷口,16,高
25.08887,121.50314,,Point,U104080,永平社會住宅,15,高
25.10012,121.53253,,Point,U104081,雨農橋,16,高
25.08019,121.5202,,Point,U104082,通河街76巷/承德路四段10巷口,14,中
25.10455,121.53025,,Point,U104083,芝山聖佑宮,15,高
25.10199,121.52927,,Point,U104084,至誠雨聲街口,9,中
25.09812,121.52449,,Point,U104085,捷運線型公園(後街),13,高
25.12408,121.53003,,Point,U104086,天母公園,12,高
25.08637,121.5247,,Point,U104087,基河文林路口,16,高
25.10094,121.52243,,Point,U104088,文林福華路口,19,高
25.0796,121.5237,,Point,U104089,劍潭海外青年活動中心,24,高
25.09029,121.50189,,Point,U104090,社子國小,20,高
25.08577,121.52531,,Point,U104091,捷運劍潭站(1號出口),70,高
25.1107,121.53999,,Point,U104092,德行東山路口,12,高
25.08756,121.51177,,Point,U104094,重慶北通河西街口,12,高
25.08406,121.5067,,Point,U104095,葫蘆國小(延平北路五段285巷),15,高
25.0881,121.50873,,Point,U104096,社子市場,15,高
25.08912,121.5049,,Point,U104097,士林區農會社子分部,8,高
25.0841,121.52341,,Point,U104098,承德劍潭路口,19,高
25.08761,121.52608,,Point,U104099,文林路101巷口,17,高
25.08408,121.50959,,Point,U104100,延平北路五段257巷15弄口,13,高
25.08471,121.5089,,Point,U104101,延平北路五段257巷4弄口,15,高
25.11742,121.53472,,Point,U104102,啟明學校,16,高
25.10203,121.52561,,Point,U104103,中山福國路口,14,中
25.10585,121.52376,,Point,U104104,德行公園,14,中
25.08238,121.52309,,Point,U104105,承德後港街口,11,中
25.09765,121.52757,,Point,U104106,中山北路五段698巷口,15,高
25.09561,121.52552,,Point,U104107,捷運士林站(1號出口),38,高
25.10336,121.52263,,Point,U104108,捷運芝山站(2號出口),62,中
25.08762,121.52711,,Point,U104109,銘傳大學(中山北路五段280巷口),23,高
25.08036,121.5084,,Point,U104110,海光公園南側,12,高
25.09013,121.52054,,Point,U104111,士商路40巷口,15,高
25.08182,121.52431,,Point,U104112,劍潭郵局,16,高
25.11247,121.52914,,Point,U104113,士東路91巷口,16,高
25.09677,121.51931,,Point,U104114,美崙公園,13,高
25.11642,121.53743,,Point,U104115,臺北市立大學(忠誠路二段207巷),17,高
25.11579,121.53113,,Point,U104116,天母東路8巷/忠誠路二段154巷口,14,高
25.09886,121.51835,,Point,U104117,美崙公園(東北側),15,高
25.09646,121.49358,,Point,U104118,福安河濱公園,14,高
25.00402,121.54074,,Point,U105001,台北花木批發市場,32,高
25.0027,121.53861,,Point,U105002,捷運萬隆站(4號出口),21,高
25.00115,121.53916,,Point,U105003,捷運萬隆站(1號出口),34,高
25.00154,121.5364,,Point,U105004,萬和二號公園,26,高
25.00144,121.53983,,Point,U105005,捷運萬隆站(2號出口),12,中
24.99621,121.54043,,Point,U105006,景仁公園,16,高
24.99366,121.54124,,Point,U105007,捷運景美站(2號出口),63,高
24.99898,121.5403,,Point,U105008,羅斯福景隆街口,20,高
24.99812,121.53663,,Point,U105009,景福街/羅斯福路6段142巷口,28,高
25.00587,121.55012,,Point,U105010,興旺公園,30,高
25.00465,121.54916,,Point,U105011,興福國中,25,高
25.00346,121.54709,,Point,U105012,興隆路2段203巷,32,高
25.00219,121.54454,,Point,U105013,景美運動公園,11,中
24.99136,121.54008,,Point,U105014,景美醫院,18,高
25.00792,121.53731,,Point,U105015,師範大學公館校區,14,中
24.99543,121.54725,,Point,U105016,景華街128巷口,20,中
24.99118,121.5436,,Point,U105017,仙跡岩登山口(景興路),22,高
24.98737,121.57726,,Point,U105018,國立政治大學,35,高
24.99873,121.57985,,Point,U105019,捷運動物園站,18,中
24.99798,121.57455,,Point,U105020,捷運木柵站,31,高
24.99886,121.56769,,Point,U105021,捷運萬芳社區站,31,高
24.99676,121.5596,,Point,U105022,文山運動中心,20,高
25.00467,121.55684,,Point,U105023,捷運辛亥站,29,中
24.99982,121.54761,,Point,U105024,興豐公園,21,高
24.98816,121.55528,,Point,U105025,木柵光輝路口,19,高
24.98747,121.54984,,Point,U105026,考試院,22,高
24.98573,121.54532,,Point,U105027,和興路26巷口,15,高
24.98859,121.54336,,Point,U105028,世新大學,30,高
24.97837,121.55548,,Point,U105029,一壽橋,16,高
24.98058,121.55624,,Point,U105030,臺北市立景美女中,25,高
24.98414,121.56907,,Point,U105031,永安藝文館-表演36房,15,高
24.98471,121.56332,,Point,U105032,忠順區民活動中心,15,高
24.98574,121.56745,,Point,U105033,景文中學,36,高
24.97619,121.5583,,Point,U105034,老泉街籃球場,14,高
24.98959,121.56959,,Point,U105035,文山行政中心,18,高
24.98718,121.56059,,Point,U105036,木柵公園,25,中
24.98814,121.56356,,Point,U105037,興隆公共住宅D2區,19,高
24.98088,121.56313,,Point,U105038,木新路3段95巷口,16,高
24.98181,121.56567,,Point,U105039,樟腳里公園,15,高
24.98301,121.55404,,Point,U105040,實踐國中,14,高
24.98537,121.57959,,Point,U105041,指南路3段2巷,13,中
24.98642,121.56514,,Point,U105042,萊茵公園,14,高
24.98935,121.56651,,Point,U105043,木柵社會住宅,12,高
24.99151,121.56836,,Point,U105044,秀明路一段185巷口,20,高
24.99111,121.56703,,Point,U105045,秀明路一段129巷口,22,高
24.97989,121.56753,,Point,U105046,恆光橋(老泉街),13,高
24.99889,121.5433,,Point,U105047,萬有3號公園,14,中
24.99939,121.55848,,Point,U105048,捷運萬芳醫院站(興隆路三段115巷),20,中
24.99579,121.55498,,Point,U105049,興得閱覽室,24,高
25.00348,121.55642,,Point,U105050,辛亥生態公園,18,中
25.00079,121.57534,,Point,U105051,博嘉運動公園,12,中
24.98841,121.57649,,Point,U105052,國立政治大學(萬壽路),54,高
24.99797,121.54982,,Point,U105053,仙岩公園,11,中
24.98543,121.58006,,Point,U105054,政大一街口,14,中
25.00115,121.55142,,Point,U105055,文山第二行政中心,30,高
24.99271,121.55865,,Point,U105056,移民署訓練中心,13,高
24.99472,121.55949,,Point,U105057,海巡署(南側),10,中
24.98695,121.56456,,Point,U105058,明道國小東南側,18,中
24.98662,121.57071,,Point,U105059,木南公園,12,中
24.98339,121.55645,,Point,U105060,實踐國中(木新路三段310巷口),17,高
25.00753,121.53719,,Point,U105061,師範大學公館校區,25,中
24.99766,121.57875,,Point,U105062,捷運動物園站(2號出口),39,高
24.982,121.5717,,Point,U105063,政大水岸電梯,10,高
25.00264,121.5768,,Point,U105064,敦南山林,14,高
24.99811,121.55307,,Point,U105065,辛亥路五段73巷口,13,中
25.01076,121.53637,,Point,U105066,景美污水抽水站,15,中
25.00345,121.53636,,Point,U105067,萬和三號公園(北側),13,高
24.99609,121.54284,,Point,U105068,景興國中,10,中
24.9966,121.5403,,Point,U105069,景仁公園,15,高
25.00825,121.53419,,Point,U105070,師大公館校區學二舍,40,中
24.99279,121.54255,,Point,U105071,景行公園,15,中
24.98939,121.57682,,Point,U105072,萬興國小,16,高
25.00743,121.55877,,Point,U105073,辛亥路四段77巷口,14,中
24.99696,121.54454,,Point,U105074,景興路42巷口,12,中
24.98768,121.56565,,Point,U105075,木柵路三段48巷,15,高
24.98944,121.56195,,Point,U105076,木柵路二段109巷,15,高
24.98808,121.54723,,Point,U105077,試院公園,15,高
25.00223,121.57039,,Point,U105080,萬美萬安街口,16,中
25.00198,121.54856,,Point,U105081,興隆路二段203巷(敦南),27,高
24.99197,121.57371,,Point,U105082,新光秀明路口,15,中
24.98532,121.55831,,Point,U105083,光輝路134巷口,15,高
24.98655,121.5552,,Point,U105084,光輝公園,15,高
25.013741,121.53068,,Point,U106001,臺北自來水事業處,20,中
25.014697,121.531908,,Point,U106002,汀州思源街口東南側,20,中
25.014529,121.534374,,Point,U106003,捷運公館站(1號出口),12,中
25.015069,121.533828,,Point,U106004,捷運公館站(4號出口),12,中
25.02694,121.52224,,Point,U106005,捷運古亭站(9號出口),20,中
25.0255,121.52346,,Point,U106006,捷運古亭站(2號出口),55,高
25.0197,121.529,,Point,U106007,捷運臺電大樓站(1號出口),34,中
25.02069,121.52456,,Point,U106008,客家文化主題公園,15,中
25.02277,121.52289,,Point,U106009,河堤國小,27,高
25.02092,121.52049,,Point,U106010,紀州庵,25,高
25.02075,121.52771,,Point,U106011,捷運臺電大樓站(5號出口),14,中
25.02102,121.52751,,Point,U106012,捷運臺電大樓站(4號出口),13,中
25.02345,121.52498,,Point,U106013,羅斯福三段金門街口,15,高
25.02338,121.51889,,Point,U106014,牯嶺公園,46,高
25.02701,121.52164,,Point,U106015,捷運古亭站(8號出口),15,中
25.02805,121.52155,,Point,U106016,捷運古亭站(7號出口),12,中
25.02698,121.52081,,Point,U106017,南昌公園,41,高
25.02723,121.51659,,Point,U106018,和平重慶路口,46,高
25.02933,121.51854,,Point,U106019,孫立人將軍官邸,23,高
25.02923,121.52058,,Point,U106020,羅斯福路二段6巷口,14,高
25.031,121.52211,,Point,U106021,金華杭州南路口,21,高
25.03239,121.51866,,Point,U106022,捷運中正紀念堂站(3號出口),18,中
25.03376,121.51772,,Point,U106023,捷運中正紀念堂站(4號出口),21,高
25.03124,121.51459,,Point,U106024,重慶南海路口西南側,16,高
25.02626,121.51402,,Point,U106025,螢橋國小,32,高
25.02543,121.51052,,Point,U106026,古亭智慧圖書館,14,高
25.02643,121.50936,,Point,U106027,永昌公園,15,高
25.02598,121.50806,,Point,U106028,中華路二段409巷口,15,高
25.02886,121.50518,,Point,U106029,南機場夜市(中華路二段),41,高
25.03024,121.50904,,Point,U106030,南海和平路口西南側,19,高
25.03132,121.50745,,Point,U106031,莒光和平路口,20,高
25.01602,121.52565,,Point,U106037,水源路11-1號旁,19,中
25.03543,121.50834,,Point,U106038,南門國中,29,高
25.03567,121.51006,,Point,U106039,捷運小南門站(2號出口),18,中
25.03907,121.5138,,Point,U106040,介壽公園,23,中
25.03938,121.50772,,Point,U106041,中華貴陽街口,20,高
25.04367,121.52849,,Point,U106042,華山文創園區,39,中
25.04527,121.5222,,Point,U106043,捷運善導寺站(1號出口),33,中
25.04193,121.52459,,Point,U106044,濟南紹興路口,39,高
25.03915,121.52163,,Point,U106046,林森仁愛路口,13,中
25.03786,121.51985,,Point,U106047,中正運動中心,30,中
25.0357,121.5241,,Point,U106048,信義杭州路口,47,高
25.04428,121.52336,,Point,U106049,捷運善導寺站(3號出口),20,中
25.03648,121.50951,,Point,U106050,捷運小南門站(1號出口),46,高
25.03792,121.50846,,Point,U106051,延平南路133巷口,17,高
25.0416,121.50842,,Point,U106052,捷運西門站(2號出口),36,中
25.04129,121.5112,,Point,U106053,寶慶博愛路口,27,高
25.03705,121.51249,,Point,U106054,法務部,27,中
25.03545,121.51327,,Point,U106055,臺北市立大學(博愛校區),59,高
25.03763,121.51709,,Point,U106056,國家圖書館,36,中
25.0459,121.53068,,Point,U106057,市民金山路口,30,中
25.03516,121.50641,,Point,U106058,聯合醫院和平院區,32,高
25.04412,121.51025,,Point,U106059,中山堂,29,高
25.04533,121.50944,,Point,U106060,中華漢口街口,19,中
25.04677,121.50989,,Point,U106061,中華路一段21巷口,22,高
25.04297,121.51643,,Point,U106062,捷運臺大醫院站(4號出口),60,高
25.01027,121.5331,,Point,U106063,寶藏巖觀音亭,23,高
25.0203,121.52302,,Point,U106064,師大水源路口,21,中
25.04176,121.51866,,Point,U106065,中山徐州路口,16,中
25.03377,121.53041,,Point,U106066,信義連雲街口,31,高
25.04842,121.51994,,Point,U106067,臺北轉運站,68,高
25.03132,121.50519,,Point,U106068,莒光大埔街口,32,高
25.04235,121.53222,,Point,U106069,捷運忠孝新生站(2號出口),32,中
25.04478,121.53274,,Point,U106070,光華商場,28,中
25.04503,121.51968,,Point,U106071,中山青島路口,30,高
25.03526,121.5168,,Point,U106072,捷運中正紀念堂站(5號出口),29,中
25.04553,121.52736,,Point,U106073,北平東杭州北路口,20,中
25.02266,121.52362,,Point,U106074,王貫英先生紀念圖書館,15,高
25.03443,121.52721,,Point,U106075,金山信義路口,25,高
25.04094,121.52215,,Point,U106077,林森徐州路口,16,高
25.04023,121.52565,,Point,U106078,徐州杭州路口,19,高
25.03615,121.5166,,Point,U106079,捷運中正紀念堂站(6號出口),17,中
25.04821,121.51903,,Point,U106080,捷運臺北車站(M2出口),20,中
25.04779,121.52042,,Point,U106083,臺北市國父史蹟館(逸仙公園),31,中
25.04244,121.50864,,Point,U106084,捷運西門站(5號出口),30,高
25.03828,121.51524,,Point,U106085,弘道國中,18,中
25.0385,121.51288,,Point,U106086,臺北市第一女子高級中學,17,中
25.01808,121.5275,,Point,U106087,台北市替代役中心,15,高
25.04051,121.52401,,Point,U106088,紹興徐州路口,18,高
25.03145,121.51941,,Point,U106089,羅斯福寧波東街口,20,中
25.01328,121.53004,,Point,U106090,自來水園區,30,中
25.03895,121.52233,,Point,U106091,仁愛林森路口,20,中
25.04178,121.50869,,Point,U106092,捷運西門站(3號出口),36,高
25.0384,121.52801,,Point,U106093,仁愛金山路口,9,中
25.03746,121.52799,,Point,U106094,杭州南路一段101巷口,14,中
25.03846,121.52497,,Point,U106095,仁愛杭州路口,15,高
25.02815,121.51108,,Point,U106096,龍興里活動中心,21,中
25.0299,121.51033,,Point,U106097,植物園,22,高
25.03158,121.51464,,Point,U106098,郵政博物館,20,高
25.04659,121.52377,,Point,U106099,林森北平路口,20,中
25.04597,121.52579,,Point,U106100,北平紹興路口,15,中
25.04692,121.52208,,Point,U106101,天津北平路口,15,高
25.04272,121.53207,,Point,U106102,捷運忠孝新生站(1號出口),19,中
25.04113,121.53273,,Point,U106103,捷運忠孝新生站(5號出口),13,中
25.04074,121.51586,,Point,U106104,捷運臺大醫院站(1號出口),19,中
25.04461,121.5188,,Point,U106105,臺大醫院兒童醫院,22,中
25.0425,121.5227,,Point,U106106,林森濟南路口(東北側),15,中
25.03837,121.52345,,Point,U106107,仁愛紹興街口(南側),17,中
25.02703,121.50686,,Point,U106108,中華南海路口,15,高
25.03371,121.51068,,Point,U106109,立法院台北會館,15,高
25.04467,121.52357,,Point,U106110,捷運善導寺站(3號出口)(忠孝東路側),17,中
25.03788,121.51904,,Point,U106111,國家音樂廳,22,中
25.04724,121.51272,,Point,U106112,忠孝西重慶南路口,33,高
25.04127,121.52697,,Point,U106113,濟南路二段8巷口,15,高
25.03811,121.52855,,Point,U106114,仁愛金山路口(東南側),14,中
25.04148,121.5287,,Point,U106115,臺灣文學基地,15,高
25.02507,121.51645,,Point,U106116,重慶南詔安街口,15,中
25.03898,121.53058,,Point,U106117,文光公園,17,高
25.03212,121.51861,,Point,U106118,捷運中正紀念堂站(2號出口),12,中
25.02484,121.51973,,Point,U106119,螢圃里小公園,19,中
25.02682,121.51737,,Point,U106120,螢橋公園,15,中
25.02965,121.51415,,Point,U106121,泉州寧波西街口,30,高
25.08251,121.54004,,Point,U107001,通北街65巷口,16,高
25.07805,121.5295,,Point,U107002,圓山風景區,15,高
25.0803,121.56251,,Point,U107003,樂群二堤頂大道口,20,中
25.08524,121.53748,,Point,U107004,劍潭社區,13,中
25.08258,121.54462,,Point,U107005,培英公園,30,高
25.08009,121.55226,,Point,U107006,樂群二明水路口,20,高
25.08474,121.54968,,Point,U107007,北安大直街口,15,高
25.08401,121.55535,,Point,U107008,捷運劍南路站(2號出口),86,高
25.07985,121.55609,,Point,U107009,樂群二敬業三路口,20,中
25.07976,121.55813,,Point,U107010,樂群二敬業四路口,36,高
25.07923,121.5473,,Point,U107011,捷運大直站(3號出口),34,高
25.04585,121.54375,,Point,U107012,復興市民路口,45,高
25.05176,121.54217,,Point,U107013,南京遼寧街口,34,中
25.04833,121.53469,,Point,U107014,伊通長安路口,21,高
25.04861,121.52935,,Point,U107015,新生長安路口,20,中
25.04796,121.52439,,Point,U107016,市民林森路口,29,高
25.05194,121.52766,,Point,U107017,南京新生路口,30,高
25.05316,121.53146,,Point,U107018,一江公園,22,中
25.05025,121.53273,,Point,U107019,松江公園,25,中
25.05639,121.52752,,Point,U107020,新生長春路口,20,中
25.06642,121.53735,,Point,U107021,第二果菜批發市場,28,高
25.05778,121.53692,,Point,U107022,民生建國路口,26,高
25.05606,121.54175,,Point,U107023,興安華城,62,高
25.06106,121.54406,,Point,U107024,捷運中山國中站,62,高
25.06045,121.54077,,Point,U107025,龍江錦州街口,16,高
25.05469,121.53686,,Point,U107026,建國長春路口,16,高
25.05214,121.5368,,Point,U107027,南京建國路口,42,高
25.05246,121.5332,,Point,U107028,捷運松江南京站(7號出口),75,高
25.04762,121.54043,,Point,U107029,朱崙商場,31,高
25.05604,121.53166,,Point,U107030,中吉公園,15,高
25.0471,121.5277,,Point,U107031,華山公園,19,高
25.04699,121.53735,,Point,U107032,建國北路一段17巷,45,高
25.0614,121.53929,,Point,U107033,江寧公園,15,高
25.06225,121.54107,,Point,U107034,民權龍江路口,32,高
25.06246,121.52705,,Point,U107035,捷運中山國小站(2號出口),59,中
25.05992,121.5333,,Point,U107036,捷運行天宮站(3號出口),42,中
25.06531,121.52565,,Point,U107037,林森農安街口,17,高
25.06283,121.52697,,Point,U107038,捷運中山國小站(4號出口),20,中
25.06491,121.52449,,Point,U107039,農安雙城街口,15,高
25.06652,121.52762,,Point,U107040,新生德惠街口,15,中
25.06847,121.52559,,Point,U107041,民族林森路口,20,高
25.06987,121.52291,,Point,U107042,臺北市立美術館,24,中
25.06816,121.52265,,Point,U107043,中山民族路口,16,高
25.04983,121.52853,,Point,U107044,新生高架停車場(林森北路107巷口),14,中
25.05201,121.52556,,Point,U107045,南京林森路口(東南側),10,中
25.05337,121.5289,,Point,U107046,仁德公園,18,高
25.05583,121.52821,,Point,U107047,中原公園,15,中
25.06682,121.54213,,Point,U107048,下埤公園,24,高
25.06505,121.54366,,Point,U107049,五常國中,16,高
25.06424,121.54037,,Point,U107050,榮星花園,38,高
25.06251,121.53765,,Point,U107051,民權建國路口,34,高
25.06585,121.53338,,Point,U107052,松江路431巷口,15,中
25.06533,121.53177,,Point,U107053,新喜公園,13,中
25.06595,121.53041,,Point,U107054,吉林路407巷口,15,高
25.06833,121.5328,,Point,U107055,民族松江路口,17,高
25.07154,121.53058,,Point,U107056,林安泰古厝,22,高
25.06185,121.5226,,Point,U107057,中山公民會館,20,中
25.04573,121.53508,,Point,U107058,渭水八德路口,23,中
25.05228,121.52176,,Point,U107059,捷運中山站(2號出口),33,高
25.06416,121.52203,,Point,U107060,撫順公園,20,中
25.06839,121.53032,,Point,U107061,新生公園,16,高
25.05867,121.53305,,Point,U107062,捷運行天宮站(1號出口),46,中
25.05497,121.52536,,Point,U107063,林森長春路口,28,高
25.06503,121.53678,,Point,U107064,建國農安街口,35,高
25.04985,121.53312,,Point,U107065,松江路77巷口,10,中
25.04836,121.53669,,Point,U107066,建國長安路口,20,高
25.04611,121.53193,,Point,U107067,市民新生路口,15,中
25.06269,121.53061,,Point,U107068,民權吉林路口,15,高
25.0651,121.5224,,Point,U107069,中山農安街口,17,高
25.05575,121.52168,,Point,U107070,捷運行政大樓,14,中
25.0568,121.53191,,Point,U107071,中吉公園(松江路188巷),22,中
25.05731,121.53021,,Point,U107072,吉林路123巷口,13,高
25.05808,121.52887,,Point,U107074,中原民生路口,15,高
25.05794,121.54244,,Point,U107075,國立臺北大學(臺北校區),38,高
25.06028,121.52991,,Point,U107076,錦州吉林路口,20,高
25.05606,121.5229,,Point,U107077,中山北路二段59巷口,12,中
25.05873,121.52488,,Point,U107078,永盛公園(民生東路一段23巷),24,高
25.05955,121.52744,,Point,U107079,新生錦州街口,20,中
25.0734,121.53985,,Point,U107080,濱江街199巷口,15,中
25.07275,121.5373,,Point,U107081,大佳社區公園,15,高
25.06807,121.53673,,Point,U107082,濱江果菜市場,22,高
25.05619,121.53949,,Point,U107083,興安合江路口,19,中
25.06597,121.54117,,Point,U107084,復興北路514巷口東側,10,中
25.06142,121.52305,,Point,U107085,台泥大樓,18,高
25.08303,121.5604,,Point,U107086,植福樂群路口,10,中
25.06157,121.52439,,Point,U107087,新興公園,20,高
25.05189,121.53517,,Point,U107088,南京伊通街口,11,中
25.05205,121.54012,,Point,U107089,南京龍江路口,15,中
25.06389,121.51916,,Point,U107090,撫順街41巷(崇德宮前),19,高
25.08152,121.54646,,Point,U107091,臺北市立圖書館大直分館,20,高
25.0801,121.54708,,Point,U107092,捷運大直站(1號出口),27,高
25.0512,121.53312,,Point,U107093,捷運松江南京站(4號出口),32,中
25.07864,121.55557,,Point,U107095,中429公園,15,高
25.05791,121.53114,,Point,U107096,長春路137巷口,16,中
25.05765,121.53299,,Point,U107097,松江民生路口,17,中
25.05277,121.53013,,Point,U107098,松江路132巷口,14,中
25.05481,121.53032,,Point,U107099,長春吉林路口,10,中
25.05488,121.53142,,Point,U107100,長春一江街口,11,中
25.05215,121.53276,,Point,U107101,捷運松江南京站(8號出口),20,中
25.05215,121.53171,,Point,U107102,南京一江街口,10,中
25.05499,121.53295,,Point,U107103,松江長春路口,16,中
25.07802,121.53511,,Point,U107104,經國七海文化園區,15,高
25.06873,121.52003,,Point,U107105,民族玉門街口,20,中
25.06493,121.52778,,Point,U107106,新生農安街口,15,中
25.06532,121.52848,,Point,U107107,稻江高級護理家事職業學校,14,中
25.07934,121.54671,,Point,U107108,捷運大直站(3號出口),18,中
25.07983,121.55236,,Point,U107109,樂群二明水路口,20,高
25.06245,121.53014,,Point,U107110,民權吉林路口(南側),16,高
25.05473,121.54026,,Point,U107111,長春龍江路口,24,高
25.06305,121.52776,,Point,U107112,民權新生路口,26,中
25.05476,121.53693,,Point,U107113,建國長春路口(北側),20,高
25.06432,121.53349,,Point,U107114,中山行政中心,24,高
25.07063,121.52327,,Point,U107115,臺北市立美術館,18,高
25.08476,121.53789,,Point,U107116,劍潭社區,18,高
25.07818,121.56175,,Point,U107117,濱江國小游泳池,16,高
25.05223,121.52581,,Point,U107118,林森公園,25,高
25.07825,121.55337,,Point,U107119,中428公園,15,中
25.05339,121.5401,,Point,U107120,復華公園,20,高
25.06819,121.52767,,Point,U107121,新生民族路口(西南側),15,中
25.05253,121.54256,,Point,U107122,捷運南京復興站(1號出口),21,中
25.04478,121.53661,,Point,U107123,八德市場(北側),16,中
25.05004,121.54043,,Point,U107124,龍江朱崙街口,14,高
25.08431,121.54755,,Point,U107125,大直街94巷,15,中
25.05196,121.5433,,Point,U107126,捷運南京復興站(8號出口),25,中
25.06228,121.53702,,Point,U107127,民權建國路口(南側),15,中
25.06688,121.5257,,Point,U107128,林森德惠街口,16,高
25.07059,121.52812,,Point,U107129,新生濱江街口(東南側),21,高
25.04699,121.53075,,Point,U107130,新生北路一段62巷口,20,中
25.05532,121.52769,,Point,U107131,新生長春路口(東北側),19,中
25.08519,121.55498,,Point,U107132,捷運劍南路站(1號出口),21,高
25.08272,121.55624,,Point,U107133,敬業三樂群三路口(西北側),16,中
25.05427,121.53896,,Point,U107134,長春路258巷2弄口,15,中
25.05418,121.54332,,Point,U107135,長寧大廈社區(南側),15,中
25.06419,121.53732,,Point,U107136,建國五常街口,20,高
25.05676,121.52268,,Point,U107137,中山北路二段62巷口,12,中
25.0448,121.54213,,Point,U107138,市民安東街口,20,中
25.04812,121.52166,,Point,U107139,市民大道二段5巷口,15,高
25.05236,121.52212,,Point,U107140,捷運中山站(3號出口),21,中
25.09122,121.55961,,Point,U108001,文湖街21巷118弄口,19,高
25.08378,121.56208,,Point,U108002,北勢湖環保公園,15,中
25.07977,121.56454,,Point,U108003,洲子一號公園,43,高
25.08284,121.56449,,Point,U108004,西康公園,16,中
25.08637,121.56088,,Point,U108005,文湖國小,31,高
25.08707,121.56406,,Point,U108006,文湖街81巷10號西側,14,中
25.08637,121.56574,,Point,U108007,德明財經科技大學,27,中
25.08311,121.57155,,Point,U108008,麗山國小,15,高
25.08398,121.57725,,Point,U108009,麗山高中,25,中
25.08522,121.57462,,Point,U108010,港華五號公園,16,中
25.08803,121.59958,,Point,U108011,大湖國小,25,中
25.07021,121.61593,,Point,U108012,安湖三號公園,12,中
25.07177,121.61491,,Point,U108013,東湖路113巷95弄,10,中
25.0745,121.57389,,Point,U108014,瑞光計程車服務站,20,中
25.07524,121.5772,,Point,U108015,文德三號公園(江南街71巷16弄),15,中
25.08395,121.60185,,Point,U108016,捷運大湖公園站(2號出口),28,高
25.07958,121.59336,,Point,U108018,康寧星雲街口,12,中
25.07864,121.59177,,Point,U108019,星雲街47號,15,中
25.08301,121.56638,,Point,U108020,捷運西湖站(1號出口),35,中
25.08205,121.56716,,Point,U108021,捷運西湖站(2號出口),12,中
25.07932,121.56869,,Point,U108022,洲子二號公園,60,高
25.08296,121.5752,,Point,U108023,港都公園,15,中
25.08598,121.572,,Point,U108024,環山路二段26巷口,29,中
25.08436,121.59478,,Point,U108025,成功金龍路口,23,高
25.0878,121.59227,,Point,U108026,碧山公園,31,高
25.08785,121.5879,,Point,U108027,金瑞公園,20,高
25.07842,121.58464,,Point,U108028,捷運文德站(2號出口),49,高
25.07695,121.58764,,Point,U108029,陽光公園,16,高
25.07504,121.58375,,Point,U108030,文德二號公園(南側),13,中
25.07758,121.58381,,Point,U108031,文德二號公園(北側),15,中
25.07777,121.57961,,Point,U108032,瑞陽公園,12,中
25.07538,121.58079,,Point,U108033,湖光國宅,22,高
25.05575,121.58486,,Point,U108034,潭美街213號,12,高
25.0559,121.57991,,Point,U108035,南京東路六段180號,21,高
25.05768,121.58159,,Point,U108036,潭美國小(南京舊宗路口),16,中
25.05653,121.58345,,Point,U108037,新明路343號,10,高
25.0539,121.58084,,Point,U108038,週美里活動廣場,17,高
25.06915,121.58898,,Point,U108039,內湖行政中心,25,高
25.07007,121.62055,,Point,U108040,樂康公園,20,高
25.06181,121.59447,,Point,U108041,安康路32巷24弄,21,中
25.06256,121.58607,,Point,U108043,明美公園,18,中
25.05827,121.58707,,Point,U108044,南京東路六段368巷,33,高
25.06058,121.5911,,Point,U108045,新明成功路口,18,高
25.06835,121.58323,,Point,U108046,民權瑞光路口,20,高
25.07335,121.57951,,Point,U108047,瑞光公共住宅(瑞光路),18,中
25.06853,121.57813,,Point,U108048,民權東路六段15巷,17,高
25.06709,121.58002,,Point,U108049,扶輪親恩公園,17,中
25.06286,121.57497,,Point,U108050,新湖三民善街口,15,高
25.05594,121.57865,,Point,U108051,內湖119號綠地,24,高
25.05301,121.57592,,Point,U108052,行善公園,20,高
25.07151,121.58991,,Point,U108054,三軍總醫院,14,高
25.06877,121.59265,,Point,U108055,福華商場,20,高
25.0674,121.59749,,Point,U108056,臺北市網球中心,16,高
25.07249,121.60796,,Point,U108057,捷運葫洲站(1號出口),25,高
25.07332,121.60223,,Point,U108058,麗湖國小,18,高
25.0733,121.59834,,Point,U108059,金湖路347巷125弄口,15,中
25.07988,121.58287,,Point,U108060,碧湖公園,15,中
25.08317,121.58109,,Point,U108061,碧湖公園(內湖路二段103巷),19,中
25.08357,121.58534,,Point,U108062,貿七社區,17,中
25.08165,121.58891,,Point,U108063,內湖區農會,12,中
25.0835,121.59454,,Point,U108064,捷運內湖站(2號出口),10,中
25.07896,121.59921,,Point,U108065,康寧金湖路口,14,高
25.07792,121.59354,,Point,U108066,康寧路一段156巷20弄口,17,中
25.06657,121.6136,,Point,U108067,安康公園,19,高
25.07669,121.61709,,Point,U108068,安泰街83巷,20,高
25.08722,121.62306,,Point,U108069,內溝溪生態展示館,8,高
25.07967,121.57584,,Point,U108070,捷運港墘站(2號出口),47,中
25.07334,121.61962,,Point,U108071,東湖國中,16,高
25.06261,121.59334,,Point,U108072,石潭公園(安康路),20,高
25.06209,121.60347,,Point,U108073,內湖垃圾焚化廠,20,高
25.06927,121.61019,,Point,U108074,康寧公園(北側),20,高
25.0716,121.60936,,Point,U108075,康寧路三段54巷口,15,高
25.05707,121.57658,,Point,U108076,行善路25巷口,21,高
25.05503,121.57823,,Point,U108077,新明路460巷口,15,高
25.06516,121.59561,,Point,U108078,下灣公園,16,高
25.06708,121.60059,,Point,U108079,民權東路六段245巷口,12,高
25.06854,121.61532,,Point,U108081,東湖國小,22,高
25.08373,121.59406,,Point,U108082,捷運內湖站(1號出口),28,高
25.07611,121.57487,,Point,U108083,瑞光港墘路口,15,中
25.07296,121.57603,,Point,U108084,瑞湖陽光街口,25,中
25.08554,121.59076,,Point,U108085,金龍公園,15,高
25.07943,121.59544,,Point,U108086,星雲街138巷1弄口,15,高
25.07567,121.6118,,Point,U108087,東湖一號公園,10,低
25.07415,121.61075,,Point,U108088,東湖二號公園,15,高
25.07514,121.60857,,Point,U108089,康湖二號公園(康寧醫院),16,高
25.05892,121.57354,,Point,U108090,堤頂大道新湖一路口,13,高
25.06682,121.5907,,Point,U108091,下灣公園(成功路),16,高
25.05876,121.58062,,Point,U108092,舊宗行善路口,9,中
25.06455,121.58262,,Point,U108093,新湖二路250巷口,20,高
25.08105,121.59205,,Point,U108094,成功路四段41巷口,12,高
25.08151,121.59764,,Point,U108095,金湖星雲街口,30,高
25.06851,121.59559,,Point,U108096,國防醫學院,15,高
25.06434,121.59399,,Point,U108097,民權東路六段190巷117弄口,15,高
25.07848,121.57493,,Point,U108098,內湖運動中心,21,中
25.08844,121.56122,,Point,U108099,九華公園,16,中
25.08454,121.584,,Point,U108100,內湖路二段179巷口,16,中
25.0606,121.58286,,Point,U108102,行善行愛路口,12,中
25.06017,121.57552,,Point,U108103,民善新湖二路口(家樂福內湖店),23,高
25.06007,121.60138,,Point,U108104,統振大樓,25,高
25.07433,121.58584,,Point,U108105,陽光街161巷口,16,高
25.05928,121.58617,,Point,U108106,潭美公園(南京東路六段368巷),18,高
25.08503,121.5637,,Point,U108107,西康二號公園,21,高
25.06935,121.58692,,Point,U108108,三民國中(民權東路六段47巷),13,高
25.07168,121.58125,,Point,U108109,瑞光路76巷口,12,中
25.06664,121.61351,,Point,U108110,捷運東湖站,28,高
25.06874,121.58923,,Point,U108111,新湖國小,12,中
25.08627,121.5914,,Point,U108112,碧山內湖路口,16,高
25.07038,121.60352,,Point,U108115,民權東路六段413巷,16,高
25.07676,121.57433,,Point,U108116,宏匯瑞光廣場(瑞光路),16,中
25.07777,121.57562,,Point,U108117,宏匯瑞光廣場(港墘路),20,中
25.07192,121.61955,,Point,U108118,康樂街151巷,14,高
25.0812,121.57067,,Point,U108119,內湖路一段360巷,15,中
25.07823,121.5898,,Point,U108120,成功路三段83號前,11,中
25.08781,121.55872,,Point,U108121,內湖路一段47巷,16,低
25.07243,121.57416,,Point,U108122,陽光舊宗路口,20,中
25.07392,121.61545,,Point,U108123,安湖公園,8,中
25.06671,121.58913,,Point,U108124,湖興公園,16,高
25.07849,121.61666,,Point,U108126,安泰街(康樂橋下),15,高
25.07539,121.6203,,Point,U108127,康樂綠地,15,高
25.08004,121.57568,,Point,U108128,捷運港墘站(1號出口),23,中
25.06058,121.5866,,Point,U108129,明美公園(行善路333巷),16,中
25.06365,121.58609,,Point,U108130,行善路383巷,17,高
25.06321,121.57681,,Point,U108131,舊宗新湖三路口,18,高
25.06766,121.57459,,Point,U108132,內湖運動公園,17,高
25.08968,121.58352,,Point,U108133,內湖路三段326巷口,15,中
25.08416,121.59665,,Point,U108134,成功公園,11,高
25.0735,121.61258,,Point,U108135,康寧路三段189巷93弄口,14,高
25.08227,121.5909,,Point,U108136,中國醫藥大學附設醫院臺北分院,13,高
25.06643,121.61732,,Point,U108137,康樂抽水站,15,高
25.08464,121.57945,,Point,U108138,環山路三段16巷口,13,中
25.0786,121.58302,,Point,U108139,文德一號綠地,15,高
25.06265,121.57427,,Point,U108140,臺北花市,20,高
25.06126,121.58201,,Point,U108141,行善社會住宅,23,高
25.0721,121.60991,,Point,U108142,康寧路三段99巷17弄口,15,高
25.08019,121.56316,,Point,U108143,堤頂大道二段407巷口,15,中
25.08156,121.56227,,Point,U108144,海德堡科技大樓,12,中
25.08067,121.5656,,Point,U108145,致伸科技大樓,17,中
25.08202,121.56861,,Point,U108146,內湖路一段288巷口,20,中
25.06749,121.57784,,Point,U108147,大都會客運內湖站,15,中
25.06888,121.57711,,Point,U108148,瑞湖公園,15,中
25.07345,121.57848,,Point,U108150,台灣世曦大樓,16,中
25.07821,121.57103,,Point,U108151,遠雄時代總部,14,中
25.07733,121.5727,,Point,U108152,瑞光路358巷口,14,中
25.07897,121.5737,,Point,U108153,大港墘公園(洲子街),18,中
25.08049,121.57361,,Point,U108154,世紀經貿,16,中
25.06805,121.58488,,Point,U108156,民權東路六段56巷口,15,高
25.06605,121.58206,,Point,U108157,新湖三行忠路72巷口,15,中
25.06407,121.57787,,Point,U108158,新湖三新湖二146巷口,15,中
25.06151,121.57811,,Point,U108159,舊宗新湖二路口,17,高
25.08152,121.56489,,Point,U108160,新光基湖大樓,19,中
25.08203,121.56298,,Point,U108161,內湖路一段120巷15弄,19,高
25.08318,121.56154,,Point,U108162,北勢湖環保公園(堤頂大道側),14,中
25.07941,121.57277,,Point,U108164,達爾文大樓,15,中
25.07074,121.61803,,Point,U108165,東湖四號公園,15,高
25.08227,121.56709,,Point,U108168,捷運西湖站(1號出口)內湖路側,13,中
25.1168,121.5048,,Point,U109001,承德路七段304巷口,20,高
25.10981,121.49886,,Point,U109002,洲美運動公園,20,高
25.11357,121.52255,,Point,U109003,榮華二明德路口,30,中
25.10896,121.51936,,Point,U109004,捷運明德站(1號出口),23,高
25.10788,121.51457,,Point,U109005,文林建民路口,20,高
25.12416,121.52607,,Point,U109006,永欣綠地,25,高
25.11739,121.46288,,Point,U109007,關渡宮,40,高
25.11884,121.46912,,Point,U109008,關渡自然公園,22,高
25.1203,121.4665,,Point,U109009,關渡醫院,14,高
25.13149,121.47365,,Point,U109010,捷運忠義站(1號出口),17,中
25.12397,121.46712,,Point,U109011,捷運關渡站(1號出口),54,高
25.12618,121.46737,,Point,U109012,捷運關渡站(2號出口),14,高
25.12796,121.46782,,Point,U109013,中央北路四段540巷口,19,高
25.1231,121.47092,,Point,U109014,大度立德路口,18,中
25.1378,121.4863,,Point,U109015,捷運復興崗站(1號出口),45,高
25.13666,121.48159,,Point,U109016,捷運復興崗站旅客服務中心,15,高
25.13475,121.49613,,Point,U109017,豐年公園,20,高
25.13997,121.48967,,Point,U109018,稻香重三路口,15,高
25.13776,121.49345,,Point,U109019,國防大學政治作戰學院,30,高
25.14582,121.49303,,Point,U109020,秀山區民活動中心,20,高
25.13691,121.49987,,Point,U109022,大業大同街口,42,高
25.13733,121.50339,,Point,U109023,捷運新北投站,42,高
25.13187,121.499,,Point,U109024,捷運北投站,30,高
25.12634,121.50099,,Point,U109025,捷運奇岩站(三合街),40,高
25.12297,121.50158,,Point,U109026,八仙里辦公處,16,高
25.12814,121.49782,,Point,U109028,大業路300巷口,20,高
25.11798,121.50342,,Point,U109029,立農公園,21,高
25.12666,121.50373,,Point,U109030,北投奇岩長青樂活大樓,15,高
25.12087,121.50523,,Point,U109031,捷運唭哩岸站(2號出口),54,高
25.11666,121.50962,,Point,U109032,北投運動中心,60,高
25.11912,121.51223,,Point,U109033,陽明大學,30,高
25.11451,121.51567,,Point,U109034,捷運石牌站(2號出口),56,高
25.11752,121.51662,,Point,U109035,台北護理大學,28,高
25.11542,121.51469,,Point,U109036,捷運石牌站(1號出口),33,高
25.11753,121.52186,,Point,U109037,振興醫院,36,高
25.1144,121.51307,,Point,U109039,石牌國小,26,高
25.11865,121.5235,,Point,U109040,振興公園,13,中
25.11978,121.50422,,Point,U109041,立農國小,19,高
25.11587,121.50576,,Point,U109042,承德路七段280巷口,17,高
25.11093,121.51382,,Point,U109043,致遠一路二段11巷,22,高
25.1137,121.52437,,Point,U109044,榮富公園,13,中
25.10467,121.51654,,Point,U109045,中正高中,31,高
25.12501,121.47158,,Point,U109046,立功立德路口,32,高
25.13539,121.478,,Point,U109047,中央北路四段30巷口,16,高
25.12081,121.51352,,Point,U109048,陽明交大圖書館,37,高
25.13675,121.50224,,Point,U109049,捷運新北投站(2號出口),11,高
25.13872,121.5021,,Point,U109050,復興公園,14,高
25.11272,121.50922,,Point,U109051,承德石牌路口,17,高
25.11416,121.50771,,Point,U109052,承德路七段188巷口,16,高
25.11,121.51841,,Point,U109053,捷運明德站(3號出口),41,高
25.13102,121.50408,,Point,U109054,大豐公園,39,高
25.10032,121.50599,,Point,U109055,洲美公園,30,高
25.14319,121.49621,,Point,U109056,中和街455巷11弄,13,中
25.10065,121.51107,,Point,U109057,洲美蜆仔港公園,20,高
25.14058,121.49915,,Point,U109058,文化三杏林一路口,17,中
25.14045,121.50446,,Point,U109059,珠海復興一路口,15,高
25.11535,121.51736,,Point,U109060,裕民二路33巷,15,高
25.12287,121.5037,,Point,U109061,新奇岩社會住宅,12,高
25.14193,121.50835,,Point,U109062,泉源公園,15,高
25.12533,121.50573,,Point,U109063,奇岩4號綠地,12,高
25.11857,121.51846,,Point,U109064,臺北健康護理大學(教研大樓),15,中
25.12862,121.5033,,Point,U109065,奇岩一號公園,24,中
25.1094,121.51248,,Point,U109066,福星公園,18,高
25.13774,121.50142,,Point,U109067,中庸公園,12,高
25.13597,121.49702,,Point,U109068,豐年公園,18,中
25.13431,121.50226,,Point,U109070,光明溫泉路口,20,高
25.12757,121.47207,,Point,U109071,和信治癌中心醫院,18,中
25.14319,121.49093,,Point,U109072,致遠新村,15,高
25.13684,121.50792,,Point,U109073,北投公園露天溫泉,15,中
25.1439,121.49447,,Point,U109074,中和街493巷9弄口,16,中
25.13258,121.49862,,Point,U109075,捷運北投站(1號出口),50,高
25.11879,121.51921,,Point,U109076,石牌立農街口,29,中
25.12082,121.50727,,Point,U109077,捷運唭哩岸站(1號出口),20,高
25.13043,121.50017,,Point,U109078,大興光明路2巷口,14,高
25.13076,121.47347,,Point,U109079,捷運忠義站(2號出口),20,中
25.10171,121.51263,,Point,U109080,福國承德路口,15,高
25.13201,121.49817,,Point,U109081,捷運北投站(1號出口)(北投路側),31,高
25.10392,121.51244,,Point,U109082,華固創富中心,15,高
25.12595,121.51098,,Point,U109084,崇仰公園(公舘路255巷),20,高
25.13713,121.49706,,Point,U109085,北投文化公園(北側),15,中
25.1419,121.4989,,Point,U109086,中和綠地,13,中
25.12307,121.49906,,Point,U109087,大業路65巷口,15,高
25.11969,121.50169,,Point,U109088,公舘承德路口,17,高
25.04987,121.57785,,Point,U110002,捷運松山站(4號出口),19,高
25.05009,121.57202,,Point,U110003,塔悠八德路口,34,高
25.05503,121.56876,,Point,U110004,鵬程公園,24,高
25.04878,121.56087,,Point,U110005,中崙高中,50,高
25.05136,121.56283,,Point,U110006,捷運南京三民站(2號出口),19,中
25.05155,121.5636,,Point,U110007,捷運南京三民站(1號出口),35,中
25.04937,121.558,,Point,U110008,光復北路11巷口,23,高
25.05152,121.5646,,Point,U110009,捷運南京三民站(4號出口),13,中
25.05492,121.56701,,Point,U110010,西松高中,14,中
25.0622,121.54565,,Point,U110011,民權復興路口,27,高
25.06374,121.54767,,Point,U110012,民福三號綠地,15,高
25.06095,121.54731,,Point,U110013,民有一號公園,37,高
25.05804,121.54897,,Point,U110014,民生敦化路口,51,高
25.0546,121.54486,,Point,U110015,松基公園,20,中
25.0619,121.56328,,Point,U110016,三民路166巷口,12,高
25.05907,121.56305,,Point,U110017,民生活動中心,35,高
25.05157,121.55118,,Point,U110018,捷運小巨蛋站(2號出口),26,中
25.04826,121.55235,,Point,U110019,臺北市藝文推廣處,45,高
25.05633,121.55286,,Point,U110020,民生國小(敦化北路199巷),20,高
25.06118,121.55098,,Point,U110021,敦北公園,48,高
25.062,121.56019,,Point,U110022,民權運動公園,21,高
25.05925,121.56888,,Point,U110023,新東公園,36,高
25.05834,121.55496,,Point,U110024,民生光復路口,31,高
25.0612867514939,121.56667899245144,,Point,U110025,三民公園,22,高
25.04459,121.55252,,Point,U110026,八德路三段74巷口,17,中
25.04488,121.54992,,Point,U110027,八德路三段8巷口,15,中
25.05419,121.55631,,Point,U110028,三軍總醫院(松山分院),44,高
25.05528,121.559,,Point,U110029,平安新城,16,高
25.05433,121.56545,,Point,U110030,健康社會住宅,20,中
25.06206,121.55475,,Point,U110031,民權光復路口(東北側),24,中
25.0484,121.56586,,Point,U110032,市民東興路口,25,高
25.04693,121.55771,,Point,U110033,光復南路22巷口,29,高
25.04566,121.55656,,Point,U110034,光復南路58巷,12,中
25.05347,121.55436,,Point,U110035,松山新城,14,中
25.04769,121.5448,,Point,U110036,內政部營建署,33,高
25.05143,121.55716,,Point,U110037,南京光復路口,31,高
25.05846,121.55947,,Point,U110038,民生立體停車場,20,高
25.05408,121.56095,,Point,U110039,健康新城,35,高
25.05606,121.56345,,Point,U110040,健安新城,30,高
25.04763,121.56115,,Point,U110041,復盛公園,20,高
25.04524,121.54659,,Point,U110042,中崙福成宮,27,高
25.05278,121.54478,,Point,U110043,捷運南京復興站(7號出口),15,中
25.05168,121.54506,,Point,U110044,捷運南京復興站(5號出口),49,高
25.0648,121.56788,,Point,U110045,塔悠疏散門,32,高
25.04951,121.54941,,Point,U110046,臺北田徑場,42,高
25.05176,121.55352,,Point,U110047,捷運小巨蛋站(5號出口),22,中
25.0536,121.54871,,Point,U110048,敦化長春路口,34,高
25.05147,121.57683,,Point,U110049,饒河疏散門(基四號疏散門),19,高
25.05013,121.57635,,Point,U110050,捷運松山站(2號出口),14,中
25.062,121.54472,,Point,U110051,民權東路三段106巷口,22,中
25.05163,121.55907,,Point,U110052,南京東路五段59巷口,11,中
25.06241,121.56831,,Point,U110053,三民公園(塔悠路),20,高
25.05198,121.5681,,Point,U110054,寶清公園,13,中
25.05406,121.56407,,Point,U110055,西松公園,11,中
25.05378,121.55893,,Point,U110056,長壽公園,15,高
25.04634,121.5542,,Point,U110057,復源公園,14,中
25.05173,121.55609,,Point,U110058,南京東路四段179巷口,13,中
25.04954,121.55261,,Point,U110059,臺北田徑場(北寧路側),24,中
25.05567,121.56713,,Point,U110060,西松高中(健康路325巷),31,中
25.05149,121.56535,,Point,U110061,南京東興路口,20,中
25.04962,121.57746,,Point,U110062,捷運松山站(3號出口),48,高
25.05722,121.55706,,Point,U110063,介壽國中,12,高
25.05226,121.54926,,Point,U110064,敦化南京路口(東北側),14,中
25.04802,121.54864,,Point,U110065,敦化八德路口,20,中
25.0615,121.56332,,Point,U110066,新東街51巷口,23,高
25.04985,121.57189,,Point,U110067,八德立體停車場,16,高
25.05452,121.54636,,Point,U110068,長春慶城街口,16,中
25.04942,121.57503,,Point,U110069,八德路四段652巷口,20,中
25.05014,121.57692,,Point,U110070,捷運松山站(1號出口),15,中
25.05152,121.55243,,Point,U110071,捷運小巨蛋站(3號出口),15,中
25.05181,121.5521,,Point,U110072,捷運小巨蛋站(5號出口),20,中
25.0542,121.5491,,Point,U110073,敦化北路155巷口,30,中
25.05764,121.54443,,Point,U110074,民生復興路口,17,中
25.0444,121.55397,,Point,U110076,市民延吉街口,30,高
25.05454,121.55417,,Point,U110077,龍城市場,15,中
25.05129,121.56426,,Point,U110078,捷運南京三民站(3號出口),29,中
25.05139,121.57062,,Point,U110079,塔悠基隆路口(麥帥一橋下),20,高
25.06432,121.54537,,Point,U110080,五常街370巷,11,高
25.04591,121.59226,,Point,U111001,南港公園(東新街),20,高
25.04128,121.59089,,Point,U111002,南港公園(福德街),32,高
25.05014,121.59238,,Point,U111003,捷運昆陽站(1號出口),58,高
25.04919,121.58832,,Point,U111004,忠孝東路六段225巷口,35,高
25.04437,121.58133,,Point,U111005,捷運後山埤站(1號出口),53,高
25.04843,121.58154,,Point,U111006,合樂公園,15,高
25.04608,121.58315,,Point,U111007,合心廣場,38,高
25.04592,121.5882,,Point,U111008,成德國中,26,高
25.04281,121.58613,,Point,U111009,玉成公園,26,高
25.04239,121.61683,,Point,U111010,研究院舊莊街口,30,高
25.04054,121.61374,,Point,U111011,中研院綜合體育館東側,30,高
25.04763,121.61145,,Point,U111012,國家生技園區,30,高
25.05469,121.61669,,Point,U111013,捷運南港展覽館站(5號出口),56,高
25.04697,121.61375,,Point,U111014,中研公園,40,高
25.04499,121.61775,,Point,U111015,福山公園,20,高
25.04139,121.6191,,Point,U111016,舊莊區民活動中心,18,高
25.03564,121.61415,,Point,U111017,凌雲市場,20,高
25.054,121.61334,,Point,U111018,市民大道八段532號,15,高
25.05933,121.61677,,Point,U111019,捷運南港軟體園區(2號出口),34,高
25.05668,121.61137,,Point,U111020,南港國小,30,高
25.05629,121.607,,Point,U111021,興中立體停車場(興中路),26,高
25.05485,121.60866,,Point,U111022,臺北市立圖書館南港分館,40,高
25.05716,121.59792,,Point,U111023,東陽公園,30,高
25.05437,121.59423,,Point,U111024,向陽南港路口,21,高
25.05252,121.60922,,Point,U111025,南港車站(忠孝東路七段415巷),11,高
25.05201,121.60741,,Point,U111026,捷運南港站(2號出口),14,中
25.05192,121.60642,,Point,U111027,捷運南港站(1號出口),20,中
25.05507,121.6028,,Point,U111028,東新國小,22,高
25.03392,121.60985,,Point,U111029,中華科技大學,20,高
25.04681,121.61703,,Point,U111030,六福公園,19,高
25.04805,121.61594,,Point,U111031,南港加壓站,24,高
25.05343,121.59945,,Point,U111032,臺北流行音樂中心(南港路),21,高
25.05766,121.60396,,Point,U111033,興南公園,26,高
25.05211,121.59839,,Point,U111034,臺北流行音樂中心(市民大道),21,高
25.05326,121.60656,,Point,U111035,南港車站(市民大道),30,中
25.05266,121.61275,,Point,U111036,忠孝東路七段527巷口,15,中
25.05627,121.61369,,Point,U111037,南港軟體園區(新民街),19,高
25.05831,121.61422,,Point,U111038,世貿公園,35,高
25.03595,121.61688,,Point,U111039,凌雲五村(研究院路三段8巷),26,高
25.0521,121.59053,,Point,U111040,新新公園(昆陽街60巷),20,高
25.05285,121.59279,,Point,U111041,南港高中(昆陽街),14,中
25.05234,121.58152,,Point,U111042,南港路三段290巷口,20,高
25.05289,121.58599,,Point,U111043,南港路三段220巷口,25,高
25.05168,121.58284,,Point,U111044,南港東新街口,28,高
25.05064,121.5803,,Point,U111045,八德中坡路口,26,高
25.04511,121.5836,,Point,U111046,捷運後山埤站(3號出口),12,中
25.04193,121.58493,,Point,U111047,玉成公園運動中心,15,中
25.03884,121.58788,,Point,U111048,百福公園,18,中
25.06148,121.61384,,Point,U111049,南湖大橋(經貿二路255巷),20,高
25.05937,121.61072,,Point,U111050,園區重陽路口,13,高
25.05293,121.60549,,Point,U111051,南港車站B棟(市民大道),16,高
25.04014,121.61766,,Point,U111052,胡適公園,20,高
25.06164,121.61267,,Point,U111053,南港抽水站,13,高
25.06271,121.61597,,Point,U111054,經貿公園,20,高
25.05853,121.60983,,Point,U111055,育成高中,20,中
25.05436,121.6181,,Point,U111056,捷運南港展覽館站(7號出口),20,高
25.05172,121.61686,,Point,U111057,力行橋(南港),18,中
25.03987,121.62015,,Point,U111058,舊莊國小(舊莊街一段),15,高
25.05705,121.59265,,Point,U111059,向陽公園,17,高
25.0582,121.59368,,Point,U111060,小彎社會住宅,51,高
25.05465,121.6185,,Point,U111061,捷運南港展覽館站(6號出口),25,中
25.05535,121.61838,,Point,U111062,捷運南港展覽館站(4號出口),22,高
25.04675,121.58731,,Point,U111063,成德綠地,17,高
25.04134,121.59323,,Point,U111064,南港公園(東新街170巷),16,高
25.04969,121.58028,,Point,U111065,中坡市民路口(東北側),19,高
25.0483,121.59425,,Point,U111066,昆陽公園,14,高
25.05368,121.59969,,Point,U111067,南港路二段178巷口,18,高
25.05225,121.60766,,Point,U111068,南港車站(忠孝東路),24,中
25.05343,121.60633,,Point,U111069,南港車站(興華路),40,高
25.04177,121.58735,,Point,U111070,玉成公園(成福路178巷口),18,中
25.04998,121.58383,,Point,U111071,玉東公園(東新街),14,高
25.03878,121.59302,,Point,U111072,南港出租國宅社區,25,高
25.04066,121.58877,,Point,U111073,成福路197巷口,15,中
25.05543,121.5892,,Point,U111074,南港疏散門(基三號疏散門),15,高
25.04557,121.58629,,Point,U111075,成德立體停車場,14,高
25.05545,121.61646,,Point,U111076,南港展覽館2館,18,中
25.03827,121.62274,,Point,U111077,舊莊派出所,15,高
25.05394,121.59124,,Point,U111078,南港路三段80巷,15,高
25.05066,121.59431,,Point,U111079,捷運昆陽站(4號出口),28,中
25.04916,121.58906,,Point,U111080,忠孝東路六段278巷口,14,中
25.04126,121.6118,,Point,U111081,中研院人文社會科學館,20,高
25.05457,121.58781,,Point,U111082,南港路三段130巷口,12,高
25.05381,121.58638,,Point,U111083,南港路三段190巷口,16,高
25.0488,121.58742,,Point,U111084,忠孝東路六段212巷口,15,中
25.05296,121.61713,,Point,U111085,新富公園,13,中
25.04728,121.58605,,Point,U111086,東新街63巷口,15,高
25.04487,121.61481,,Point,U111087,中興公園,15,中
25.058,121.62189,,Point,U111113,內湖機廠(港東街),15,高
25.02035,121.55769,,Point,U112001,黎忠區民活動中心,16,高
25.02561,121.55409,,Point,U112002,基隆路二段159巷口,14,中
25.02811,121.55671,,Point,U112003,嘉興街175巷口,16,中
25.0132,121.56335,,Point,U112004,和平東路三段631巷口,15,中
25.01545,121.56134,,Point,U112005,和平東路三段530巷口,15,高
25.02698,121.55841,,Point,U112006,景勤二號公園,41,高
25.02668,121.56175,,Point,U112007,臺北醫學大學,55,高
25.02868,121.55932,,Point,U112008,三興公園,31,高
25.03162,121.57396,,Point,U112009,松德站,48,高
25.03222,121.56974,,Point,U112010,捷運象山站(2號出口),31,中
25.02863,121.56981,,Point,U112011,象山公園,34,中
25.02678,121.56884,,Point,U112012,松仁路253巷3弄,26,中
25.03616,121.56983,,Point,U112013,興雅國中,18,中
25.03295,121.56867,,Point,U112014,捷運象山站(1號出口),24,中
25.03471,121.57301,,Point,U112015,松德路200巷,41,高
25.0382,121.57495,,Point,U112016,中全公園,17,高
25.02868,121.56672,,Point,U112017,台北市災害應變中心,45,高
25.03189,121.56678,,Point,U112018,信義運動中心,33,高
25.03275,121.56337,,Point,U112019,捷運台北101/世貿站(3號出口),15,中
25.03003,121.56287,,Point,U112020,景新公園,17,中
25.03281,121.55756,,Point,U112021,光復信義路口東南側,16,中
25.03452,121.5576,,Point,U112022,三張犁,40,高
25.03745,121.5602,,Point,U112023,仁愛路四段496巷口,34,中
25.03961,121.57199,,Point,U112024,松山工農,34,高
25.03423,121.57636,,Point,U112025,松友公園,27,高
25.03894,121.57915,,Point,U112026,林口公園,41,高
25.0347,121.58018,,Point,U112027,松山家商,25,中
25.03301,121.58096,,Point,U112028,永春陂濕地公園,23,中
25.03801,121.56541,,Point,U112029,臺北市政府,63,中
25.03607,121.56535,,Point,U112030,松智松壽路口,39,中
25.03627,121.56383,,Point,U112031,市府松壽路口,28,中
25.03899,121.56369,,Point,U112032,市府松高路口,54,高
25.03599,121.56218,,Point,U112033,市民廣場,30,中
25.03306,121.5662,,Point,U112035,信義廣場(台北101),96,中
25.03338,121.56333,,Point,U112036,捷運台北101/世貿站(5號出口),15,中
25.0427,121.58112,,Point,U112037,春光公園,30,高
25.03476,121.56865,,Point,U112038,松仁路121巷口,31,中
25.03846,121.58618,,Point,U112039,福德國小,35,高
25.03841,121.58355,,Point,U112040,福德公園,35,高
25.03918,121.56654,,Point,U112042,松高路(信義新天地A4館),17,中
25.0401,121.56822,,Point,U112043,興雅松仁路口,65,高
25.04626,121.57045,,Point,U112044,福祥公園,19,高
25.02388,121.56984,,Point,U112045,吳興公車總站,56,高
25.0193,121.57105,,Point,U112046,泰和公園,34,中
25.04773,121.56895,,Point,U112047,興雅國小(基隆路一段37巷),15,中
25.04732,121.57211,,Point,U112048,雅祥公園(松信路50巷口),12,中
25.0489,121.57841,,Point,U112049,松山車站,63,高
25.04797,121.57432,,Point,U112050,五常公園,19,中
25.04548,121.57207,,Point,U112051,永吉松信路口,25,高
25.02969,121.55766,,Point,U112052,三興國小,22,高
25.04927,121.57205,,Point,U112053,市民松信路口,20,高
25.0433,121.5638,,Point,U112054,松山高中,38,高
25.03005,121.55764,,Point,U112055,基隆光復路口,17,中
25.04108,121.5629,,Point,U112056,基隆忠孝路口西南側,14,中
25.0213,121.57027,,Point,U112057,泰和里民活動中心,18,中
25.04395,121.58184,,Point,U112058,捷運後山埤站(2號出口),22,中
25.04519,121.57712,,Point,U112059,虎林永吉路口,15,高
25.04345,121.57539,,Point,U112060,永吉公園,18,高
25.04561,121.57549,,Point,U112061,永吉路321巷口,15,中
25.04623,121.57772,,Point,U112062,松山永吉路口,20,高
25.0432,121.57789,,Point,U112063,松山路292巷口,17,高
25.03295,121.5712,,Point,U112064,捷運象山站(3號出口),51,高
25.03657,121.57349,,Point,U112065,松德公園,25,高
25.03511,121.56369,,Point,U112066,世貿三館,30,中
25.0383,121.5762,,Point,U112067,松德虎林街口,25,高
25.04185,121.57204,,Point,U112068,富台公園,25,高
25.04516,121.56702,,Point,U112069,基隆路一段101巷口,23,高
25.0405,121.57538,,Point,U112070,捷運永春站(2號出口),28,高
25.02606,121.5631,,Point,U112071,吳興街260巷,32,高
25.03593,121.57906,,Point,U112072,松山家商(林口街),25,高
25.03771,121.56124,,Point,U112073,仁愛逸仙路口,28,中
25.03693,121.57535,,Point,U112074,安強公園,20,高
25.03321,121.55873,,Point,U112075,信義基隆路口,20,中
25.0327,121.56157,,Point,U112076,捷運台北101/世貿站(2號出口),49,高
25.02236,121.56268,,Point,U112078,吳興街284巷36弄口,25,中
25.0426,121.58381,,Point,U112079,協和祐德高級中學,20,中
25.03929,121.58755,,Point,U112080,福德國小公車站,10,中
25.03656,121.56866,,Point,U112081,松仁路95巷口,60,高
25.03404,121.56598,,Point,U112082,臺北南山廣場,55,高
25.03214,121.55974,,Point,U112083,景聯廣場,13,高
25.02976,121.5642,,Point,U112084,景平公園,13,中
25.04084,121.56789,,Point,U112085,捷運市政府站(3號出口),92,高
25.04719,121.58058,,Point,U112086,五分埔公園,18,高
25.02306,121.57036,,Point,U112087,松仁路305號,14,中
25.02474,121.56741,,Point,U112088,吳興街394巷口,12,中
25.0409,121.5705,,Point,U112089,忠孝東路五段215巷口,24,中
25.03203,121.5615,,Point,U112090,松勤莊敬路口,15,中
25.03047,121.56838,,Point,U112091,松仁松平路口,10,中
25.03322,121.57433,,Point,U112092,信義松德路口,18,高
25.04146,121.56731,,Point,U112093,捷運市政府站(4號出口),14,中
25.02326,121.56329,,Point,U112094,吳興街284巷(廣安宮),15,中
25.02605,121.5577,,Point,U112095,景勤二號公園(西南側),22,高
25.02589,121.56073,,Point,U112096,克勤新村,18,高
25.02186,121.55532,,Point,U112097,和平東路三段291號,15,高
25.02365,121.49528,,Point,U113001,德昌寶興街口(西北角),15,高
25.0216,121.49597,,Point,U113002,寶興長泰街口(西南角),17,中
25.01975,121.4973,,Point,U113003,萬大路486巷口,10,高
25.02485,121.50898,,Point,U113004,國興中華路口,14,高
25.02442,121.5107,,Point,U113005,古亭國中,20,高
25.02297,121.50845,,Point,U113006,國興水源路口,14,高
25.02481,121.50755,,Point,U113007,青年公園高爾夫球場,16,高
25.02594,121.50651,,Point,U113008,國興青年路口,30,高
25.0241,121.50289,,Point,U113009,青年公園棒球場,28,高
25.02085,121.50539,,Point,U113010,青年公園籃球場,16,高
25.02964,121.50258,,Point,U113012,復華花園新城,28,高
25.02582,121.50255,,Point,U113013,新和國小,20,高
25.03124,121.50122,,Point,U113014,莒光郵局,16,高
25.03116,121.50336,,Point,U113015,莒光立體停車場,10,高
25.03301,121.5016,,Point,U113016,艋舺大道146巷口,14,中
25.02257,121.49807,,Point,U113017,東園國小,27,高
25.01688,121.49534,,Point,U113018,華中疏散門,12,高
25.02332,121.49264,,Point,U113019,錦德公園,16,高
25.02516,121.49604,,Point,U113020,忠德公園,19,高
25.02744,121.49619,,Point,U113022,華江高中,50,高
25.03267,121.49757,,Point,U113023,西園艋舺路口,32,高
25.02673,121.49176,,Point,U113025,雙園國中,24,高
25.03284,121.48908,,Point,U113026,長順區民活動中心,26,高
25.03397,121.49029,,Point,U113027,華江國小,23,高
25.03388,121.49293,,Point,U113028,華江八號公園,20,高
25.03203,121.49127,,Point,U113029,環河南雙園街口,15,高
25.03062,121.49021,,Point,U113030,大理高中,37,高
25.03383,121.4946,,Point,U113031,糖廍文化園區,14,高
25.03211,121.49502,,Point,U113032,兩棵樹公園,17,高
25.02021,121.50376,,Point,U113033,萬華青年公宅,23,高
25.04662,121.50717,,Point,U113034,開封西寧路口,41,高
25.04441,121.50541,,Point,U113035,峨嵋停車場,47,高
25.0417,121.49992,,Point,U113036,長沙公園,24,高
25.04367,121.50218,,Point,U113037,貓公園(中興橋頭),15,高
25.04099,121.50769,,Point,U113038,西本願寺廣場,65,高
25.03771,121.50662,,Point,U113039,中華桂林路口,28,高
25.03535,121.49938,,Point,U113040,捷運龍山寺站(1號出口),30,高
25.0355,121.49541,,Point,U113041,龍山國小,24,高
25.03852,121.49881,,Point,U113042,華西公園,33,高
25.03792,121.50177,,Point,U113043,老松國小,40,高
25.03364,121.50322,,Point,U113044,萬華火車站,53,高
25.03394,121.50117,,Point,U113045,萬華火車站(D2廣場),17,中
25.03509,121.50199,,Point,U113046,捷運龍山寺站(3號出口),23,高
25.04445,121.50306,,Point,U113047,臺北市電影主題公園(峨嵋街),15,高
25.04551,121.50318,,Point,U113048,臺北市電影主題公園(康定路),15,高
25.04345,121.50841,,Point,U113049,中華峨嵋街口,24,高
25.0403,121.50197,,Point,U113050,萬華266號綠地,15,高
25.02376,121.49986,,Point,U113051,萬大國小(萬大路344巷口),18,高
25.02533,121.4996,,Point,U113052,德昌街10巷口,10,高
25.03517,121.49048,,Point,U113053,環河南和平西路口,20,高
25.03119,121.48858,,Point,U113054,長順街60巷口,15,高
25.0271,121.49775,,Point,U113055,西園公園,14,高
25.03606,121.49163,,Point,U113056,華江污水廠,20,高
25.03731,121.49526,,Point,U113057,柳鄉公園,21,中
25.03286,121.49301,,Point,U113058,綠堤社區公園,22,中
25.03035,121.49228,,Point,U113059,長順艋舺大道口,26,高
25.01796,121.49988,,Point,U113060,富民路145巷口,20,高
25.0286,121.48908,,Point,U113061,環南綜合市場,14,高
25.03646,121.50492,,Point,U113062,龍山國中,15,高
25.04776,121.50612,,Point,U113063,洛陽停車場,22,高
25.03811,121.50362,,Point,U113064,桂林昆明街口,20,高
25.02926,121.49936,,Point,U113065,萬華國中,26,高
25.02273,121.50271,,Point,U113066,青年公園3號出口,38,高
25.03548,121.50026,,Point,U113068,捷運龍山寺站(1號出口),36,高
25.0317,121.50033,,Point,U113069,莒光社會住宅,30,高
25.0287,121.49156,,Point,U113070,艋舺西藏路口,20,高
25.01975,121.4992,,Point,U113071,萬大路493巷,10,中
25.02768,121.49134,,Point,U113072,雙園國中地下停車場,12,高
25.01979,121.5009,,Point,U113073,青年路152巷口,16,高
25.01493,121.53044,,Point,U119005,臺大水源舍區A棟,37,高
25.01466,121.52917,,Point,U119006,臺大卓越研究大樓,32,高
25.01411,121.52997,,Point,U119007,臺大水源修齊會館,18,中
25.01391,121.52895,,Point,U119008,臺大檔案展示館,10,中
25.01525,121.53009,,Point,U119009,臺大水源舍區B棟,30,高
25.01729,121.54531,,Point,U119043,臺大男八舍東側,42,中
25.01408,121.53759,,Point,U119044,臺大禮賢樓東南側,23,中
25.01839,121.53404,,Point,U119045,臺大農業陳列館北側,45,高
25.01355,121.53673,,Point,U119046,臺大管理學院二館北側,40,中
25.01761,121.53844,,Point,U119047,臺大土木系館,30,中
25.01547,121.53436,,Point,U119048,臺大大一女舍北側,53,中
25.01937,121.53902,,Point,U119049,臺大女九舍西南側,62,高
25.01846,121.5376,,Point,U119050,臺大小福樓東側,31,高
25.01616,121.54251,,Point,U119051,臺大立體機車停車場,27,中
25.01857,121.54059,,Point,U119052,臺大工綜館南側,26,中
25.02108,121.53783,,Point,U119053,臺大天文數學館南側,19,中
25.01941,121.5404,,Point,U119054,臺大心理系館南側,30,中
25.01793,121.53585,,Point,U119055,臺大樂學館東側,28,中
25.01627,121.53535,,Point,U119056,臺大農化新館西側,10,中
25.01666,121.53718,,Point,U119057,臺大五號館西側,20,中
25.0198,121.53583,,Point,U119058,臺大舊體育館西側,33,中
25.01595,121.53791,,Point,U119059,臺大共同教室北側,20,低
25.01566,121.53786,,Point,U119060,臺大共同教室東南側,12,低
25.01511,121.53786,,Point,U119061,臺大鹿鳴堂東側,27,中
25.01345,121.53798,,Point,U119062,臺大公館停車場西北側,12,中
25.01603,121.53635,,Point,U119063,臺大第二行政大樓南側,27,中
25.01754,121.54398,,Point,U119064,臺大明達館機車停車場,28,中
25.01699,121.53574,,Point,U119065,臺大二號館,10,低
25.02157,121.53633,,Point,U119066,臺大凝態館南側,20,中
25.02053,121.54145,,Point,U119067,臺大社科院西側,42,中
25.01987,121.54175,,Point,U119068,臺大社會系館南側,39,高
25.02074,121.53906,,Point,U119069,臺大思亮館東南側,10,中
25.01561,121.53583,,Point,U119070,臺大椰林小舖,48,中
25.02036,121.53992,,Point,U119071,臺大計資中心南側,34,中
25.01881,121.53868,,Point,U119072,臺大原分所北側,12,中
25.01548,121.53825,,Point,U119074,臺大生命科學館西北側,30,中
25.01761,121.53995,,Point,U119075,臺大第一活動中心西南側,40,中
25.01922,121.54195,,Point,U119076,臺大博理館西側,22,中
25.0189,121.536,,Point,U119077,臺大博雅館西側,56,高
25.01704,121.53888,,Point,U119078,臺大森林館北側,10,中
25.01698,121.53455,,Point,U119079,臺大一號館,19,中
25.01539,121.53686,,Point,U119080,臺大小小福西南側,10,低
25.01337,121.53909,,Point,U119081,臺大教研館北側,11,中
25.01703,121.53781,,Point,U119082,臺大四號館東北側,10,低
25.0196,121.53846,,Point,U119083,臺大新生教室南側,18,中
25.019,121.54305,,Point,U119084,臺大鄭江樓北側,10,中
25.01857,121.54247,,Point,U119085,臺大電機二館東南側,14,中
25.01804,121.53928,,Point,U119086,臺大圖資系館北側,25,中
25.0169,121.54031,,Point,U119087,臺大總圖書館西南側,30,中
25.01995,121.54347,,Point,U119088,臺大黑森林西側,20,中
25.01791,121.54242,,Point,U119089,臺大獸醫館南側,24,中
25.02112,121.53591,,Point,U119090,臺大新體育館東南側,40,高
25.01816,121.54469,,Point,U119091,臺大明達館北側(員工宿舍),18,中
